[
    {
        "name": "Söğütlüçeşme",
        "lat": 40.9916473827285,
        "lon": 29.0376365085678
    },
    {
        "name": "Fikirtepe",
        "lat": 40.9936487103669,
        "lon": 29.0466111612905
    },
    {
        "name": "Uzunçayır",
        "lat": 40.9983609238419,
        "lon": 29.0558739962095
    },
    {
        "name": "Acıbadem",
        "lat": 41.0141008673891,
        "lon": 29.0579165780493
    },
    {
        "name": "Altunizade",
        "lat": 41.0210981656998,
        "lon": 29.048973865659
    },
    {
        "name": "Burhaniye",
        "lat": 41.0320064991162,
        "lon": 29.0469431000114
    },
    {
        "name": "15 Temmuz Şehitler Köprüsü",
        "lat": 41.0364320690911,
        "lon": 29.0438844056863
    },
    {
        "name": "Zincirlikuyu",
        "lat": 41.0662328041257,
        "lon": 29.0143616078752
    },
    {
        "name": "Mecidiyeköy",
        "lat": 41.0667780001523,
        "lon": 28.9923509999986
    },
    {
        "name": "Çağlayan",
        "lat": 41.0673420001522,
        "lon": 28.9816849999982
    },
    {
        "name": "Okmeydanı Hastane",
        "lat": 41.0673031039095,
        "lon": 28.9749149205777
    },
    {
        "name": "Darülaceze Perpa",
        "lat": 41.061571681731,
        "lon": 28.9670441256104
    },
    {
        "name": "Okmeydanı",
        "lat": 41.0566044482359,
        "lon": 28.9613783424294
    },
    {
        "name": "Halıcıoğlu",
        "lat": 41.0491176151061,
        "lon": 28.9467703657422
    },
    {
        "name": "Ayvansaray Eyüpsultan",
        "lat": 41.0392650001523,
        "lon": 28.9382109999962
    },
    {
        "name": "Edirnekapı",
        "lat": 41.0337304791161,
        "lon": 28.9301455000114
    },
    {
        "name": "Bayrampaşa-Maltepe / Koç Üniversitesi Hastanesi",
        "lat": 41.0238032327751,
        "lon": 28.9213220825204
    },
    {
        "name": "Topkapı-Şehit Mustafa Cambaz",
        "lat": 41.0204265723455,
        "lon": 28.9175311434407
    },
    {
        "name": "Cevizlibağ",
        "lat": 41.0174949176057,
        "lon": 28.9127525445743
    },
    {
        "name": "Merter",
        "lat": 41.0076011908793,
        "lon": 28.8973039007487
    },
    {
        "name": "Zeytinburnu",
        "lat": 41.0031374955284,
        "lon": 28.8902690348003
    },
    {
        "name": "İncirli",
        "lat": 40.9983153191168,
        "lon": 28.8742835900109
    },
    {
        "name": "Bahçelievler",
        "lat": 40.9951912227039,
        "lon": 28.8639865430697
    },
    {
        "name": "Şirinevler",
        "lat": 40.9916736979951,
        "lon": 28.8471011564907
    },
    {
        "name": "Yenibosna",
        "lat": 40.9923226784601,
        "lon": 28.8346798388333
    },
    {
        "name": "Sefaköy",
        "lat": 40.9988505150114,
        "lon": 28.799026577156
    },
    {
        "name": "Beşyol",
        "lat": 40.9945995616464,
        "lon": 28.7949824384815
    },
    {
        "name": "Florya",
        "lat": 40.9862250537114,
        "lon": 28.7871029167696
    },
    {
        "name": "Cennet Mahallesi",
        "lat": 40.985327499117,
        "lon": 28.7827850000092
    },
    {
        "name": "Küçükçekmece",
        "lat": 40.9864959561638,
        "lon": 28.770556489407
    },
    {
        "name": "İbb Sosyal Tesisleri",
        "lat": 40.9778794405345,
        "lon": 28.7443857704777
    },
    {
        "name": "Şükrübey",
        "lat": 40.9803347427965,
        "lon": 28.7315679533488
    },
    {
        "name": "Avcılar Mrk.Ünv.Kmp.",
        "lat": 40.9839436908688,
        "lon": 28.7256306318449
    },
    {
        "name": "Cihangir-Üniv.Mah.",
        "lat": 40.990623870717,
        "lon": 28.7138233383452
    },
    {
        "name": "Mustafa Kemalpaşa",
        "lat": 40.9954499566252,
        "lon": 28.7055731535736
    },
    {
        "name": "Saadetdere Mahallesi",
        "lat": 40.9999994184658,
        "lon": 28.6918289921445
    },
    {
        "name": "H.Sanayi",
        "lat": 41.0049812384373,
        "lon": 28.6840343432778
    },
    {
        "name": "Haramidere",
        "lat": 41.0061241686209,
        "lon": 28.6721492821011
    },
    {
        "name": "Güzelyurt",
        "lat": 41.0068871893298,
        "lon": 28.6645586291708
    },
    {
        "name": "Beylikdüzü",
        "lat": 41.0101057775841,
        "lon": 28.6559798335347
    },
    {
        "name": "B.Belediye",
        "lat": 41.0128579200368,
        "lon": 28.6486546384259
    },
    {
        "name": "Cumhuriyet Mahallesi",
        "lat": 41.0156902606789,
        "lon": 28.6412870752648
    },
    {
        "name": "Beykent",
        "lat": 41.0200423547034,
        "lon": 28.6301955337967
    },
    {
        "name": "B.Sondurak",
        "lat": 41.021588625467,
        "lon": 28.6263964719378
    }
]